{ "venues": [{ "name": "The Book Cafe", "type": "cafe", "address": "20 Martin Rd, Seng Kee Building, Singapore 239070", "hours": "Mon-Sun 8:30AM-10:30PM", "resources": ["wifi", "chargingport", "aircon", "food"], "thumbnail": "https://i0.wp.com/frostfairs.com/wp-content/uploads/The-Book-Cafe.jpg?w=800&ssl=1 800w", "coordinates": { "longitude": 103.838777, "latitude": 1.291299 }, "region": "central", "id": 1 }, { "name": "Group Therapy", "type": "cafe", "address": "30 East Coast Road, #01-01, Singapore 428751", "hours": "Mon-Sun 8AM-10PM", "resources": ["wifi", "chargingport", "aircon", "food"], "thumbnail": "https://i0.wp.com/frostfairs.com/wp-content/uploads/Group-Therapy.jpg?w=640&ssl=1 640w", "coordinates": { "longitude": 103.902936, "latitude": 1.303852 }, "region": "east", "id": 2 }, { "name": "Jewel Coffee", "type": "cafe", "address": "442 Orchard Rd, 1-1 Claymore Connect, Singapore 238879", "hours": "Mon-Sun 7AM-8PM", "resources": ["wifi", "chargingport", "aircon", "food"], "thumbnail": "https://i0.wp.com/frostfairs.com/wp-content/uploads/Jewel-Coffee.jpg?w=800&ssl=1 800w", "coordinates": { "longitude": 103.828343, "latitude": 1.307544 }, "region": "central", "id": 3 }, { "name": "Caf√©&Meal MUJI", "type": "cafe", "address": "01-10, Plaza Singapura, 68 Orchard Road, Singapore 238839", "hours": "Mon-Sun 11AM-11PM", "resources": ["wifi", "chargingport", "aircon", "food"], "thumbnail": "https://i0.wp.com/frostfairs.com/wp-content/uploads/Caf%C3%A9Meal-MUJI.jpg?resize=600%2C398", "coordinates": { "longitude": 103.845134, "latitude": 1.300756 }, "region": "central", "id": 4 }, { "name": "The Coffee Bean & Tea Leaf", "type": "cafe", "address": "583 Orchard Road, #01-45/46 Forum The Shopping Mall, Singapore 238884", "hours": "Mon-Sun 24 hours", "resources": ["wifi", "chargingport", "aircon", "food"], "thumbnail": "https://i0.wp.com/frostfairs.com/wp-content/uploads/The-Coffee-Bean-Tea-Leaf.jpg?w=800&ssl=1 800w", "coordinates": { "longitude": 103.828829, "latitude": 1.306227 }, "region": "central", "id": 5 }, { "name": "Library@Esplanade", "type": "library", "address": "8 Raffles Ave, 03-01, Singapore 039802", "hours": "Mon-Sun 11AM-9PM", "resources": ["wifi", "chargingport", "aircon"], "thumbnail": "https://i0.wp.com/frostfairs.com/wp-content/uploads/Library@Esplanade-a.jpg?w=800&ssl=1 800w", "coordinates": { "longitude": 103.856378, "latitude": 1.289696 }, "region": "central", "id": 6 }, { "name": "NUS Central Library", "type": "school", "address": "12 Kent Ridge Crescent, Singapore 119275", "hours": "Mon-Sat 9AM-6PM", "resources": ["wifi", "chargingport", "aircon"], "thumbnail": "https://i0.wp.com/frostfairs.com/wp-content/uploads/NUS-Central-Library.jpg?w=800&ssl=1 800w", "coordinates": { "longitude": 103.772902, "latitude": 1.296548 }, "region": "west", "id": 7 }, { "name": "Tampines Regional Library", "type": "library", "address": "1 Tampines Walk, 02-01 Our Tampines Hub, Singapore 529620", "hours": "Mon-Sun 10AM-9PM", "resources": ["wifi", "chargingport", "aircon"], "thumbnail": "https://i0.wp.com/frostfairs.com/wp-content/uploads/Tampines-Regional-Library.jpg?w=725&ssl=1 725w", "coordinates": { "longitude": 103.940364, "latitude": 1.353221 }, "region": "east", "id": 8 }, { "name": "Library@Orchard", "type": "library", "address": "277 Orchard Rd, 03-12 /04-11 Orchard Gateway, Singapore 238858", "hours": "Mon-Sun 11AM-9PM", "resources": ["wifi", "chargingport", "aircon"], "thumbnail": "https://i0.wp.com/frostfairs.com/wp-content/uploads/Library@Orchard.jpg?w=800&ssl=1 800w", "coordinates": { "longitude": 103.83919, "latitude": 1.300581 }, "region": "central", "id": 9 }, { "name": "Lee Kong Chian Reference Library", "type": "library", "address": "100 Victoria St, Singapore 188064", "hours": "Mon-Sun 10AM-9PM", "resources": ["wifi", "chargingport", "aircon"], "thumbnail": "https://i0.wp.com/frostfairs.com/wp-content/uploads/National-Library-Lee-Kong-Chian-Reference-Library.jpg?w=800&ssl=1 800w", "coordinates": { "longitude": 103.853981, "latitude": 1.297882 }, "region": "central", "id": 10 }, { "name": "Singapore Changi Airport", "type": "others", "address": "78 Airport Blvd., #01-304, Singapore 819666", "hours": "Mon-Sun 24 hours", "resources": ["wifi", "chargingport", "aircon", "food"], "thumbnail": "https://i0.wp.com/frostfairs.com/wp-content/uploads/Singapore-Changi-Airport.jpg?w=1024&ssl=1 1024w", "coordinates": { "longitude": 103.99, "latitude": 1.36 }, "region": "east", "id": 11 }, { "name": "SMU Indoor/Outdoor Study Area", "type": "school", "address": "81 Victoria St, Singapore 188065", "hours": "Mon-Sun 24 hours", "resources": ["wifi", "chargingport", "food"], "thumbnail": "https://i0.wp.com/frostfairs.com/wp-content/uploads/SMU-Study-Spots.jpg?w=800&ssl=1 800w", "coordinates": { "longitude": 103.852035, "latitude": 37.622315883636475 }, "region": "central", "id": 12 }, { "name": "Khoo Teck Puat Hospital", "type": "others", "address": "90 Yishun Central, Singapore 768828", "hours": "Mon-Sun 24 hours", "resources": ["chargingport", "food"], "thumbnail": "https://i0.wp.com/frostfairs.com/wp-content/uploads/Khoo-Teck-Puat-Hospital.jpg?w=900&ssl=1 900w", "coordinates": { "longitude": 55.752912, "latitude": 1.296509 }, "region": "north", "id": 13 }, { "name": "Sengkang Community Club", "type": "community centre", "address": "2 Sengkang Square, Sengkang Community Hub, Singapore 545025", "hours": "Mon-Sun 9AM-10PM", "resources": ["wifi", "chargingport", "aircon", "food"], "thumbnail": "https://i0.wp.com/frostfairs.com/wp-content/uploads/Sengkang-Community-Club.jpg?w=800&ssl=1 800w", "coordinates": { "longitude": 103.894052, "latitude": 1.392507 }, "region": "northeast", "id": 14 }, { "name": "The Red Box", "type": "community centre", "address": "113 Somerset Rd, Singapore 238165", "hours": "Mon-Sun 10AM-10PM", "resources": ["wifi", "chargingport"], "thumbnail": "https://i0.wp.com/frostfairs.com/wp-content/uploads/The-Red-Box.jpg?w=800&ssl=1 800w", "coordinates": { "longitude": 103.836934, "latitude": 1.300544 }, "region": "central", "id": 15 }, { "name": "Blossom Youth Centre", "type": "community centre", "address": "9 Toh Yi Dr, 1-321, Singapore 590009", "hours": "Mon-Fri 10AM-10PM", "resources": ["wifi", "chargingport", "aircon", "food"], "thumbnail": "https://i0.wp.com/frostfairs.com/wp-content/uploads/Blossom-Youth-Centre.jpg?w=1024&ssl=1 1024w", "coordinates": { "longitude": 103.773504, "latitude": 1.338304 }, "region": "north", "id": 16 }, { "name": "Nee Soon East Community Club", "type": "community centre", "address": "1 Yishun Ave 9, Singapore 768893", "hours": "Mon-Sun 9AM-10PM", "resources": ["wifi", "chargingport"], "thumbnail": "https://i0.wp.com/frostfairs.com/wp-content/uploads/Nee-Soon-East-Community-Club-Study-Room.jpg?w=960&ssl=1 960w", "coordinates": { "longitude": 103.838577, "latitude": 1.430888 }, "region": "north", "id": 17 }, { "name": "Our Tampines Hub", "type": "mall", "address": "1 Tampines Walk, Singapore 528523", "hours": "Mon-Sun 24 Hours", "resources": ["wifi", "chargingport", "food"], "thumbnail": "https://i0.wp.com/frostfairs.com/wp-content/uploads/Our-Tampines-Hub.jpg?w=1944&ssl=1 1944w", "coordinates": { "longitude": 103.940364, "latitude": 1.353221 }, "region": "east", "id": 18 }, { "name": "Smart Void Deck", "type": "community centre", "address": "224 Jurong East Street 21, Singapore 600224", "hours": "Mon-Sun 24 Hours", "resources": ["wifi", "chargingport"], "thumbnail": "https://i0.wp.com/frostfairs.com/wp-content/uploads/smart-void-deck.jpg?w=1080&ssl=1 1080w", "coordinates": { "longitude": 103.736699, "latitude": 1.341705 }, "region": "west", "id": 19 }, { "name": "Tzu Chi Humanistic Youth Centre", "type": "community centre", "address": "30A Yishun Central 1, Singapore 768796", "hours": "Mon-Sun 10AM-10PM", "resources": ["wifi", "chargingport", "aircon", "food"], "thumbnail": "https://i0.wp.com/frostfairs.com/wp-content/uploads/Tzu-Chi-Humanistic-Youth-Centre.jpg?w=1920&ssl=1 1920w", "coordinates": { "longitude": 103.838826, "latitude": 1.426408 }, "region": "north", "id": 20 }, { "name": "*SCAPE HubQuarters", "type": "mall", "address": "2 Orchard Link, Singapore 237978", "hours": "Mon-Sat 9AM-9PM", "resources": ["wifi", "chargingport"], "thumbnail": "https://i0.wp.com/frostfairs.com/wp-content/uploads/Scape-Hubquarters.jpg?w=800&ssl=1 800w", "coordinates": { "longitude": 103.835719, "latitude": 1.301327 }, "region": "central", "id": 21 }, { "name": "Coffeemin", "type": "cafe", "address": "6 Eu Tong Sen St, 02-33 Clarke Quay, Singapore 059817", "hours": "Mon-Sat 11AM-9:30PM", "resources": ["wifi", "chargingport", "aircon", "food"], "thumbnail": "https://i0.wp.com/frostfairs.com/wp-content/uploads/Coffeemin.jpg?w=627&ssl=1 627w", "coordinates": { "longitude": 103.846909, "latitude": 1.288683 }, "region": "central", "id": 22 }, { "name": "Study Room at United Square Shopping Mall", "type": "mall", "address": "101 Thomson Road Singapore 307591", "hours": "Mon-Sun 10:30AM-9:30PM", "resources": ["wifi", "chargingport", "aircon", "food"], "thumbnail": "https://i0.wp.com/frostfairs.com/wp-content/uploads/Study-Room-at-United-Square-Shopping-Mall.jpg?w=800&ssl=1 800w", "coordinates": { "longitude": 103.843744, "latitude": 1.317058 }, "region": "northeast", "id": 23 }, { "name": "Study Area at JCube", "type": "mall", "address": "2 Jurong East Central 1, Singapore 609731", "hours": "Mon-Sun 10AM-10PM", "resources": ["wifi", "chargingport", "aircon", "food"], "thumbnail": "https://i0.wp.com/frostfairs.com/wp-content/uploads/Study-Area-at-JCube.jpg?w=768&ssl=1 768w", "coordinates": { "longitude": 103.740407, "latitude": 1.333178 }, "region": "west", "id": 24 }, { "name": "Woodlands Regional Library", "type": "library", "address": "900 S Woodlands Dr, #01-03 Civic Centre, Singapore 730900", "hours": "Mon-Sun 10AM-9PM", "resources": ["wifi", "chargingport", "aircon"], "thumbnail": "https://studyramen.com/wp-content/uploads/2021/10/woodlands-regional-library.jpg?ezimgfmt=ng:webp/ngcb1", "coordinates": { "longitude": 103.893614, "latitude": 1.31605 }, "region": "north", "id": 25 }, { "name": "The LLibrary", "type": "library", "address": "11 Eunos Road 8 #03-02, via, Lobby B Lifelong Learning Institute, Singapore 408601", "hours": "Mon-Sun 8.30AM-6PM", "resources": ["wifi", "chargingport", "aircon"], "thumbnail": "https://studyramen.com/wp-content/uploads/2021/10/llibrary.jpg?ezimgfmt=ng:webp/ngcb1", "coordinates": { "longitude": 103.893614, "latitude": 1.31605 }, "region": "east", "id": 26 }, { "name": "Sprout Hub", "type": "community centre", "address": "102 Henderson Rd, Singapore 159562", "hours": "Mon-Sun 9AM-10PM", "resources": ["wifi", "chargingport"], "thumbnail": "https://studyramen.com/wp-content/uploads/2021/10/sprout-hub-1.jpg?ezimgfmt=ng:webp/ngcb1", "coordinates": { "longitude": 103.893614, "latitude": 1.31605 }, "region": "central", "id": 27 }, { "name": "Bukit Panjang Library", "type": "library", "address": "1 Jelebu Road #04-04 & 16/17 Bukit Panjang Plaza, Singapore 677743", "hours": "Mon-Sun 11AM-9PM", "resources": ["wifi", "chargingport", "aircon"], "thumbnail": "https://studyramen.com/wp-content/uploads/2021/10/bukit-panjang-lib.jpg?ezimgfmt=ng:webp/ngcb1", "coordinates": { "longitude": 103.893614, "latitude": 1.31605 }, "region": "north", "id": 28 }, { "name": "NTU Library", "type": "school", "address": "50 Nanyang Ave, Singapore 639798", "hours": "Mon-Sat 10AM-10PM", "resources": ["wifi", "chargingport", "aircon", "food"], "thumbnail": "https://www.ntu.edu.sg/images/default-source/default-album/education/ntu-library/7-libraries/lib-7libs-lwnl6b2a4d41-b955-472a-878e-ee709e803693.png?sfvrsn=367226b_3", "coordinates": { "longitude": 103.893614, "latitude": 1.31605 }, "region": "west", "id": 29 }, { "name": "Bishan Library", "type": "library", "address": "5 Bishan Pl, #01-01, Singapore 579841", "hours": "Mon-Sun 10AM-9PM", "resources": ["wifi", "chargingport", "aircon"], "thumbnail": "https://www.nlb.gov.sg/Portals/0/library/gallery/Bishan/Level%203%20Reading%20Area.jpg?ver=79CFlhOwx3OyFaDSHHp8vA%3D%3D", "coordinates": { "longitude": 103.893614, "latitude": 1.31605 }, "region": "northeast", "id": 30 }, { "name": "Yishun Library", "type": "library", "address": "930 Yishun Ave 2 #04-01 North Wing Northpoint City, Singapore 769098", "hours": "Mon-Sun 11AM-9PM", "resources": ["wifi", "chargingport", "aircon"], "thumbnail": "https://thesmartlocal.com/wp-content/uploads/2019/07/study-spots-8.jpg", "coordinates": { "longitude": 103.893614, "latitude": 1.31605 }, "region": "north", "id": 31 }, { "name": "Library@Harbourfront", "type": "library", "address": "1 HarbourFront Walk, #03-05 VivoCity, Singapore 098585", "hours": "Mon-Sun 11AM-9PM", "resources": ["wifi", "chargingport", "aircon"], "thumbnail": "https://thesmartlocal.com/wp-content/uploads/2019/07/study-spots-14.png", "coordinates": { "longitude": 103.893614, "latitude": 1.31605 }, "region": "central", "id": 32 }, { "name": "Central Public Library", "type": "library", "address": "100 Victoria St, #B1-01 National Library, Singapore 188064", "hours": "Mon-Sun 10AM-9PM", "resources": ["wifi", "chargingport", "aircon"], "thumbnail": "https://thesmartlocal.com/wp-content/uploads/2019/07/study-spots-4.png", "coordinates": { "longitude": 103.893614, "latitude": 1.31605 }, "region": "central", "id": 33 }, { "name": "Starbucks@United Square", "type": "cafe", "address": "101 Thomson Road #01-01 United Square Singapore 307591", "hours": "Mon-Sun 24 hours", "resources": ["aircon", "wifi", "chargingport", "food"], "thumbnail": "https://ingelsoong.com/wp-content/uploads/2018/04/Studying-at-Starbucks-Effective.jpg", "coordinates": { "longitude": 103.893614, "latitude": 1.31605 }, "region": "northeast", "id": 34 }, { "name": "Starbucks@NUS University Town", "type": "cafe", "address": "Education Resource Centre #B1-01, 8 College Avenue West, Singapore 138608", "hours": "Mon-Sun 24 hours", "resources": ["aircon", "wifi", "chargingport", "food"], "thumbnail": "https://content.shopback.com/sg/wp-content/uploads/2016/05/01112958/18785_10203059574209499_462758464359689597_n.jpg", "coordinates": { "longitude": 103.893614, "latitude": 1.31605 }, "region": "central", "id": 35 }, { "name": "Tampines Regional Library", "type": "library", "address": "1 Tampines Walk, #02-01 Our Tampines Hub, Singapore 528523", "hours": "Mon-Sun 10am-9pm", "resources": ["aircon", "wifi", "chargingport"], "thumbnail": "https://ingelsoong.com/wp-content/uploads/2018/04/tampines-library-opening-hours.jpg", "coordinates": { "longitude": 103.893614, "latitude": 1.31605 }, "region": "east", "id": 36 }, { "name": "Lowercase@Lasalle", "type": "school", "address": "LASELLE College of the Arts Block D, 1st McNally Street, #01-01 Singapore 187940", "hours": " Mon-Thu: 9:30am - 9:30pm", "resources": ["aircon", "wifi", "chargingport"], "thumbnail": "https://ingelsoong.com/wp-content/uploads/2018/04/Lowercase-opening-hours.jpg", "coordinates": { "longitude": 103.893614, "latitude": 1.31605 }, "region": "central", "id": 37 }, { "name": "Cat Cafe Neko No Niwa", "type": "cafe", "address": " 54A Boat Quay Singapore 049843", "hours": " Mon", "resources": ["aircon", "wifi", "chargingport", "food"], "thumbnail": "https://images.squarespace-cdn.com/content/v1/59014ed8db29d637250fa476/1537149832856-WDFPGJVOCYTQPOTUYE2J/NekoNiwa-45.jpg?format=1500w", "coordinates": { "longitude": 103.893614, "latitude": 1.31605 }, "region": "central", "id": 38 }, { "name": "Coffeemin", "type": "cafe", "address": "180 Kitchener Road, #02-29, Singapore 208539", "hours": "Mon-Sun 9AM-9PM", "resources": ["aircon", "wifi", "chargingport"], "thumbnail": "https://www.eheartland.sg/wp-content/uploads/2021/10/Coffeemin_Lite.jpg", "coordinates": { "longitude": 103.893614, "latitude": 1.31605 }, "region": "central", "id": 39 }, { "name": "Toby's Estate", "type": "cafe", "address": "8 Rodyk Street, #01-03 Singapore 238216", "hours": " Sun-Thu: 7.30am-6pm", "resources": ["aircon", "wifi", "chargingport"], "thumbnail": "https://ingelsoong.com/wp-content/uploads/2020/01/Tobys-Estate.jpg", "coordinates": { "longitude": 103.893614, "latitude": 1.31605 }, "region": "central", "id": 40 }, { "name": "Five And Dime", "type": "cafe", "address": "297 River Valley Road, Singapore 238338", "hours": " Mon-Thu: 12pm-12am", "resources": ["aircon", "wifi", "chargingport"], "thumbnail": "https://ingelsoong.com/wp-content/uploads/2018/04/Five-and-Dime.jpg", "coordinates": { "longitude": 103.893614, "latitude": 1.31605 }, "region": "central", "id": 41 }, { "name": "Penny University", "type": "cafe", "address": "402 East Coast Road, Singapore 428997", "hours": " Tue-Thu: 8.30am-6pm", "resources": ["aircon", "wifi", "chargingport"], "thumbnail": "https://ingelsoong.com/wp-content/uploads/2018/04/Penny-University.jpg", "coordinates": { "longitude": 103.893614, "latitude": 1.31605 }, "region": "east", "id": 42 }, { "name": "Productive Paya Lebar Quarter", "type": "cafe", "address": "2 Tanjong Katong Road, PLQ 3, #01-09 Paya Lebar Quarter, Singapore 437161", "hours": " Mon-Fri: 10.30am-5.00pm", "resources": ["aircon", "wifi", "chargingport"], "thumbnail": "https://ingelsoong.com/wp-content/uploads/2020/01/Productive-PLQ.jpg", "coordinates": { "longitude": 103.893614, "latitude": 1.31605 }, "region": "east", "id": 43 }] }