[{ "name": "The Book Cafe", "address": "20 Martin Rd, Seng Kee Building, Singapore 239070", "hours": "Mon-Sun 8:30AM-10:30PM", "resources": ["Wifi", "Power sockets", "Aircon", "Food"], "thumbnail": "https://i0.wp.com/frostfairs.com/wp-content/uploads/The-Book-Cafe.jpg?w=800&ssl=1 800w, https://i0.wp.com/frostfairs.com/wp-content/uploads/The-Book-Cafe.jpg?resize=599%2C400&ssl=1 599w" }, { "name": "Group Therapy", "address": "30 East Coast Road, #01-01, Singapore 428751", "hours": "Mon-Sun 8AM-10PM", "resources": ["Wifi", "Power sockets", "Aircon", "Food"], "thumbnail": "https://i0.wp.com/frostfairs.com/wp-content/uploads/Group-Therapy.jpg?w=640&ssl=1 640w, https://i0.wp.com/frostfairs.com/wp-content/uploads/Group-Therapy.jpg?resize=600%2C400&ssl=1 600w" }, { "name": "Jewel Coffee", "address": "442 Orchard Rd, 1-1 Claymore Connect, Singapore 238879", "hours": "Mon-Sun 7AM-8PM", "resources": ["Wifi", "Power sockets", "Aircon", "Food"], "thumbnail": "https://i0.wp.com/frostfairs.com/wp-content/uploads/Jewel-Coffee.jpg?w=800&ssl=1 800w, https://i0.wp.com/frostfairs.com/wp-content/uploads/Jewel-Coffee.jpg?resize=533%2C400&ssl=1 533w" }, { "name": "Caf√©&Meal MUJI", "address": "01-10, Plaza Singapura, 68 Orchard Road, Singapore 238839", "hours": "Mon-Sun 11AM-11PM", "resources": ["Wifi", "Power sockets", "Aircon", "Food"], "thumbnail": null }, { "name": "The Coffee Bean & Tea Leaf", "address": "583 Orchard Road, #01-45/46 Forum The Shopping Mall, Singapore 238884", "hours": "Mon-Sun 24 hours", "resources": ["Wifi", "Power sockets", "Aircon", "Food"], "thumbnail": "https://i0.wp.com/frostfairs.com/wp-content/uploads/The-Coffee-Bean-Tea-Leaf.jpg?w=800&ssl=1 800w, https://i0.wp.com/frostfairs.com/wp-content/uploads/The-Coffee-Bean-Tea-Leaf.jpg?resize=599%2C400&ssl=1 599w" }, { "name": "Library@Esplanade", "address": "8 Raffles Ave, 03-01, Singapore 039802", "hours": "Mon-Sun 11AM-9PM", "resources": ["Wifi", "Power sockets", "Aircon"], "thumbnail": "https://i0.wp.com/frostfairs.com/wp-content/uploads/Library@Esplanade-a.jpg?w=800&ssl=1 800w, https://i0.wp.com/frostfairs.com/wp-content/uploads/Library@Esplanade-a.jpg?resize=600%2C400&ssl=1 600w" }, { "name": "NUS Central Library", "address": "12 Kent Ridge Crescent, Singapore 119275", "hours": "Mon-Sat 9AM-6PM", "resources": ["Wifi", "Power sockets", "Aircon"], "thumbnail": "https://i0.wp.com/frostfairs.com/wp-content/uploads/NUS-Central-Library.jpg?w=800&ssl=1 800w, https://i0.wp.com/frostfairs.com/wp-content/uploads/NUS-Central-Library.jpg?resize=541%2C400&ssl=1 541w" }, { "name": "Tampines Regional Library", "address": "1 Tampines Walk, 02-01 Our Tampines Hub, Singapore 528523", "hours": "Mon-Sun 10AM-9PM", "resources": ["Wifi", "Power sockets", "Aircon"], "thumbnail": "https://i0.wp.com/frostfairs.com/wp-content/uploads/Tampines-Regional-Library.jpg?w=725&ssl=1 725w, https://i0.wp.com/frostfairs.com/wp-content/uploads/Tampines-Regional-Library.jpg?resize=513%2C400&ssl=1 513w" }, { "name": "Library@Orchard", "address": "277 Orchard Rd, 03-12 /04-11 Orchard Gateway, Singapore 238858", "hours": "Mon-Sun 11AM-9PM", "resources": ["Wifi", "Power sockets", "Aircon"], "thumbnail": "https://i0.wp.com/frostfairs.com/wp-content/uploads/Library@Orchard.jpg?w=800&ssl=1 800w, https://i0.wp.com/frostfairs.com/wp-content/uploads/Library@Orchard.jpg?resize=533%2C400&ssl=1 533w" }, { "name": "Lee Kong Chian Reference Library", "address": "100 Victoria St, Singapore 188064", "hours": "Mon-Sun 10AM-9PM", "resources": ["Wifi", "Power sockets", "Aircon"], "thumbnail": "https://i0.wp.com/frostfairs.com/wp-content/uploads/National-Library-Lee-Kong-Chian-Reference-Library.jpg?w=800&ssl=1 800w, https://i0.wp.com/frostfairs.com/wp-content/uploads/National-Library-Lee-Kong-Chian-Reference-Library.jpg?resize=533%2C400&ssl=1 533w" }, { "name": "Singapore Changi Airport", "address": "Airport Blvd, Singapore 918146", "hours": "Mon-Sun 24 hours", "resources": ["Wifi", "Power sockets", "Aircon", "Food"], "thumbnail": "https://i0.wp.com/frostfairs.com/wp-content/uploads/Singapore-Changi-Airport.jpg?w=1024&ssl=1 1024w, https://i0.wp.com/frostfairs.com/wp-content/uploads/Singapore-Changi-Airport.jpg?resize=601%2C400&ssl=1 601w" }, { "name": "SMU indoor/outdoor Study Spots", "address": "81 Victoria St, Singapore 188065", "hours": "Mon-Sun 24 hours", "resources": ["Wifi", "Power sockets", "Food"], "thumbnail": "https://i0.wp.com/frostfairs.com/wp-content/uploads/SMU-Study-Spots.jpg?w=800&ssl=1 800w, https://i0.wp.com/frostfairs.com/wp-content/uploads/SMU-Study-Spots.jpg?resize=694%2C390&ssl=1 694w" }, { "name": "Khoo Teck Puat Hospital", "address": "90 Yishun Central, Singapore 768828", "hours": "Mon-Sun 24 hours", "resources": ["Power sockets", "Food"], "thumbnail": "https://i0.wp.com/frostfairs.com/wp-content/uploads/Khoo-Teck-Puat-Hospital.jpg?w=900&ssl=1 900w, https://i0.wp.com/frostfairs.com/wp-content/uploads/Khoo-Teck-Puat-Hospital.jpg?resize=400%2C400&ssl=1 400w, https://i0.wp.com/frostfairs.com/wp-content/uploads/Khoo-Teck-Puat-Hospital.jpg?resize=150%2C150&ssl=1 150w, https://i0.wp.com/frostfairs.com/wp-content/uploads/Khoo-Teck-Puat-Hospital.jpg?resize=100%2C100&ssl=1 100w" }, { "name": "Sengkang Community Club", "address": "2 Sengkang Square, Sengkang Community Hub, Singapore 545025", "hours": "Mon-Sun 9AM-10PM", "resources": ["Wifi", "Power sockets", "Aircon", "Food"], "thumbnail": "https://i0.wp.com/frostfairs.com/wp-content/uploads/Sengkang-Community-Club.jpg?w=800&ssl=1 800w, https://i0.wp.com/frostfairs.com/wp-content/uploads/Sengkang-Community-Club.jpg?resize=533%2C400&ssl=1 533w" }, { "name": "The Red Box", "address": "113 Somerset Rd, Singapore 238165", "hours": "Mon-Sun 10AM-10PM", "resources": ["Wifi", "Power sockets"], "thumbnail": "https://i0.wp.com/frostfairs.com/wp-content/uploads/The-Red-Box.jpg?w=800&ssl=1 800w, https://i0.wp.com/frostfairs.com/wp-content/uploads/The-Red-Box.jpg?resize=602%2C400&ssl=1 602w" }, { "name": "Blossom Youth Centre", "address": "9 Toh Yi Dr, 1-321, Singapore 590009", "hours": "Mon-Fri 10AM-10PM", "resources": ["Wifi", "Power sockets", "Aircon", "Food"], "thumbnail": "https://i0.wp.com/frostfairs.com/wp-content/uploads/Blossom-Youth-Centre.jpg?w=1024&ssl=1 1024w, https://i0.wp.com/frostfairs.com/wp-content/uploads/Blossom-Youth-Centre.jpg?resize=533%2C400&ssl=1 533w" }, { "name": "Nee Soon East Community Club", "address": "1 Yishun Ave 9, Singapore 768893", "hours": "Mon-Sun 9AM-10PM", "resources": ["Wifi", "Power sockets"], "thumbnail": "https://i0.wp.com/frostfairs.com/wp-content/uploads/Nee-Soon-East-Community-Club-Study-Room.jpg?w=960&ssl=1 960w, https://i0.wp.com/frostfairs.com/wp-content/uploads/Nee-Soon-East-Community-Club-Study-Room.jpg?resize=533%2C400&ssl=1 533w" }, { "name": "Our Tampines Hub", "address": "1 Tampines Walk, Singapore 528523", "hours": "Mon-Sun 24 Hours", "resources": ["Wifi", "Power sockets", "Food"], "thumbnail": "https://i0.wp.com/frostfairs.com/wp-content/uploads/Our-Tampines-Hub.jpg?w=1944&ssl=1 1944w, https://i0.wp.com/frostfairs.com/wp-content/uploads/Our-Tampines-Hub.jpg?resize=533%2C400&ssl=1 533w, https://i0.wp.com/frostfairs.com/wp-content/uploads/Our-Tampines-Hub.jpg?resize=1024%2C768&ssl=1 1024w, https://i0.wp.com/frostfairs.com/wp-content/uploads/Our-Tampines-Hub.jpg?resize=1536%2C1152&ssl=1 1536w" }, { "name": "Smart Void Deck", "address": "224 Jurong East Street 21, Singapore 600224", "hours": "Mon-Sun 24 Hours", "resources": ["Wifi", "Power sockets"], "thumbnail": "https://i0.wp.com/frostfairs.com/wp-content/uploads/smart-void-deck.jpg?w=1080&ssl=1 1080w, https://i0.wp.com/frostfairs.com/wp-content/uploads/smart-void-deck.jpg?resize=533%2C400&ssl=1 533w, https://i0.wp.com/frostfairs.com/wp-content/uploads/smart-void-deck.jpg?resize=1024%2C768&ssl=1 1024w" }, { "name": "Tzu Chi Humanistic Youth Centre", "address": "30A Yishun Central 1, Singapore 768796", "hours": "Mon-Sun 10AM-10PM", "resources": ["Wifi", "Power sockets", "Aircon", "Food"], "thumbnail": "https://i0.wp.com/frostfairs.com/wp-content/uploads/Tzu-Chi-Humanistic-Youth-Centre.jpg?w=1920&ssl=1 1920w, https://i0.wp.com/frostfairs.com/wp-content/uploads/Tzu-Chi-Humanistic-Youth-Centre.jpg?resize=533%2C400&ssl=1 533w, https://i0.wp.com/frostfairs.com/wp-content/uploads/Tzu-Chi-Humanistic-Youth-Centre.jpg?resize=1024%2C768&ssl=1 1024w, https://i0.wp.com/frostfairs.com/wp-content/uploads/Tzu-Chi-Humanistic-Youth-Centre.jpg?resize=1536%2C1152&ssl=1 1536w" }, { "name": "*SCAPE HubQuarters", "address": "2 Orchard Link, Singapore 237978", "hours": "Mon-Sat 9AM-9PM", "resources": ["Wifi", "Power sockets"], "thumbnail": "https://i0.wp.com/frostfairs.com/wp-content/uploads/Scape-Hubquarters.jpg?w=800&ssl=1 800w, https://i0.wp.com/frostfairs.com/wp-content/uploads/Scape-Hubquarters.jpg?resize=694%2C390&ssl=1 694w" }, { "name": "Coffeemin", "address": "6 Eu Tong Sen St, 02-33 Clarke Quay, Singapore 059817", "hours": "Mon-Sat 11AM-9:30PM", "resources": ["Wifi", "Power sockets", "Aircon", "Food"], "thumbnail": "https://i0.wp.com/frostfairs.com/wp-content/uploads/Coffeemin.jpg?w=627&ssl=1 627w, https://i0.wp.com/frostfairs.com/wp-content/uploads/Coffeemin.jpg?resize=621%2C400&ssl=1 621w" }, { "name": "Study Room at United Square Shopping Mall", "address": "101 Thomson Road Singapore 307591", "hours": "Mon-Sun 10:30AM-9:30PM", "resources": ["Wifi", "Power sockets", "Aircon", "Food"], "thumbnail": "https://i0.wp.com/frostfairs.com/wp-content/uploads/Study-Room-at-United-Square-Shopping-Mall.jpg?w=800&ssl=1 800w, https://i0.wp.com/frostfairs.com/wp-content/uploads/Study-Room-at-United-Square-Shopping-Mall.jpg?resize=674%2C400&ssl=1 674w, https://i0.wp.com/frostfairs.com/wp-content/uploads/Study-Room-at-United-Square-Shopping-Mall.jpg?resize=150%2C90&ssl=1 150w" }, { "name": "Study Area at JCube", "address": "2 Jurong East Central 1, Singapore 609731", "hours": "Mon-Sun 10AM-10PM", "resources": ["Wifi", "Power sockets", "Aircon", "Food"], "thumbnail": "https://i0.wp.com/frostfairs.com/wp-content/uploads/Study-Area-at-JCube.jpg?w=768&ssl=1 768w, https://i0.wp.com/frostfairs.com/wp-content/uploads/Study-Area-at-JCube.jpg?resize=400%2C400&ssl=1 400w, https://i0.wp.com/frostfairs.com/wp-content/uploads/Study-Area-at-JCube.jpg?resize=150%2C150&ssl=1 150w, https://i0.wp.com/frostfairs.com/wp-content/uploads/Study-Area-at-JCube.jpg?resize=100%2C100&ssl=1 100w" }]